IRIG_TIME,Delta_Irig,AMB_AIR_TEMP,AMB_AIR_TEMP_C,EVENT,LEFT_FUEL_FLOW,FF1LE_ANA1,RIGHT_FUEL_FLOW,FF1RE_ANA1,LEFT_AB_FUEL_FLOW,FF2LE_ANA1,RIGHT_AB_FUEL_FLOW,FF2RE_ANA1,GPS_DAYS,GPS_HOURS,GPS_MINUTES,GPS_SECONDS,GPS_MICROSECONDS,GPS_ALTITUDE,GPS_P_ALTM,GPS_P_ALTS,GPS_LAT_DIRECT,GPS_LAT_DEG,GPS_LAT_MIN,GPS_LONG_DIRECT,GPS_LONG_DEG,GPS_LONG_MIN,GPS_SPEED,ADC_PRESSURE_ALTITUDE,ADC_MACH,ADC_COMPUTED_AIRSPEED,ADC_TRUE_AIRSPEED,ADC_TOTAL_AIR_TEMP,ADC_AMBIENT_AIR_TEMP,ADC_STATIC_PRESSURE,ADC_AOA_UNCORRECTED,ADC_AOA_NORMALIZED,ADC_AOA_CORRECTED,ADC_STATIC_PR_UNCORRECTED,EED_LEFT_FUEL_QTY,EED_LEFT_ENGINE_OIL_PRESSURE,EED_LEFT_ENGINE_RPM,EED_LEFT_ENGINE_EGT,EED_LEFT_ENGINE_NOZZLE_POS,EED_LEFT_ENGINE_FUEL_FLOW,EED_RIGHT_FUEL_QTY,EED_RIGHT_ENGINE_OIL_PRESSURE,EED_RIGHT_ENGINE_RPM,EED_RIGHT_ENGINE_EGT,EED_RIGHT_ENGINE_NOZZLE_POS,EED_RIGHT_ENGINE_FUEL_FLOW,ADC_FLAP_POS,ADC_LANDING_GEAR_POS,EGI_VE,EGI_VN,EGI_VZ,EGI_ALTITUDE,EGI_RADAR_ALTITUDE,EGI_ROLL_ANGLE,EGI_PITCH_ANGLE,EGI_TRUE_HEADING,EGI_MAGNETIC_HEADING,EGI_ACCEL_X,EGI_ACCEL_Y,EGI_ACCEL_Z,EGI_ROLL_RATE_P,EGI_PITCH_RATE_Q,EGI_YAW_RATE_R,PITCH_RATE_Q,ROLL_RATE_P,YAW_RATE_R,NY_LATERAL_ACCEL,NX_LONG_ACCEL,NZ_NORMAL_ACCEL,RAIL_POS,LAT_SP,LON_SP,STAB_POS,SPEED_BRK_POS,RUD_PED_POS,RUDDER_POS,LT_RUD_PED_FORC,LT_RUD_PED_FORCE_X,LT_RUD_PED_FORCE_Z,RT_RUD_PED_FORC,RT_RUD_PED_FORCE_X,RT_RUD_PED_FORCE_Z,STATIC_PRESSURE,TOTAL_PRESSURE,TAT_DEGC,TAT_DEGF,P_A,PLA_LEFT,PLA_RIGHT,LEFT_FUEL_TEMP_C,LEFT_FUEL_TEMP_F,RIGHT_FUEL_TEMP_C,RIGHT_FUEL_TEMP_F,PARO1_TEMP,PARO1_TEMP_K,PARO2_TEMP,PARO2_TEMP_K,LEFT_ENGINE_RPM_N1,RIGHT_ENGINE_RPM_N1,PRESS_ALT_IC,ADC_AIR_GND_WOW,LT_GEAR_WOW,NOSE_WOW,RT_GEAR_WOW,AIRSPEED_IC,AIRSPEED_TIC,MACH_IC,AOA,AOSS
234:15:35:50.700000,709.2,255.33614696362719,-17.81385304,2,0.001929473,50.003394663588786,0.001925817,49.99999999999995,0.001999175,50.003394663588786,0.002172691,50.020367981532978,234,15,35,50.689999999999998,7338,34054.790026246679,10379.9,0,1,35,10.816490000000002,1,117,13.075959999999997,385.04000000000002,32062,0.70806250000000004,254.25,423.625,-14,-37.5,8.0820271120000005,1.186523424,0.287109375,1.186523424,277.4375,1440.75,28.59375,94.1875,436,21.78125,752,1514.75,30.09375,93.875,422,19.59375,788,-0.175781248,0,-649.0348485,36.85433493,1.9989460049999999,34048,0,-0.098876952,4.5758056119999999,-89.97802632,-103.2550037,0.25,0,31.65625,0.043945312,-0.153808592,-0.021972656,-3.396636244,15.06947517500214,-0.250996857,0.17620672764231493,0.10691076966633339,1.0506851138853772,1.3213983893228232,20.081449168982562,14.994970471264981,-2.085417824,0.24688946461472394,-0.129204143,0.1395858150463738,128.80763793807355,125.15939604265297,-30.43900743,43.762110542344885,7.4036393323860699,43.131293091633125,8.1877899169921875,11.28338623046875,6.6866020312238561,44.035883656202941,11.28338623046875,58.678562674655154,58.431094162595173,-52.52837394,-62.55107309,-62.24066597,-80.03319875,28.85998535,302.00998535156248,27.35998535,300.50998535156248,94.173280772070456,93.95711795849914,31782.158622154457,0,0,0,0,249.8237089930704,451.51774625052354,0.69265333141375962,4.7512545750966098,-0.226512535
234:15:35:50.900000,709.4,255.33254156974337,-17.81745843,2,0.001929473,49.99999999999995,0.001925817,50.003394663588786,0.001999175,50.003394663588786,0.002172691,50.020367981532978,234,15,35,50.889999999999993,8499,34055.446194225689,10380.1,0,1,35,10.81799,1,117,13.108239999999999,385.01999999999998,32062.5,0.70806250000000004,254.25,423.625,-14,-37.5,8.0820271120000005,1.186523424,0.287109375,1.186523424,277.4375,1440.75,28.6875,94.1875,436,21.78125,752,1515,30.09375,93.875,422,19.59375,782,-0.175781248,0,-649.0253898,36.893718289999995,1.973510439,34048,0,-0.093383788,4.5483397920000002,-89.98351948,-103.26599,0.03125,0.03125,32.15625,0,-0.10986328,-0.065917968,-4.014439879,7.0236326390667045,3.5087914586958959,0.18185799099246047,0.10478416620302689,1.0503347030779793,1.3784174045420983,20.038190307423452,14.997500856731637,-2.085417824,0.24688946461472394,-0.129204143,0.13169716192344083,128.80796372517193,125.15939604265297,-30.44038602,43.762110542344885,7.4036393323860699,43.131293091633125,8.1877899169921875,11.28338623046875,6.6826506863577748,44.028771235443998,11.28338623046875,58.683191639173231,58.426485776416499,-52.52837394,-62.55107309,-62.24066597,-80.03319875,28.85998535,302.00998535156248,27.35998535,300.50998535156248,94.201225181502267,94.019573000579172,31782.158622154457,0,0,0,0,249.8237089930704,451.5145584819943,0.69265333141375962,4.7411887342657693,-0.200762942
234:15:35:51.100000,709.6,255.33836250846051,-17.81163749,2,0.001929473,49.99999999999995,0.001925817,50.003394663588786,0.001999175,50.003394663588786,0.002172691,50.020367981532978,234,15,35,51.089999999999996,9661,34055.446194225689,10380.1,0,1,35,10.81799,1,117,13.108239999999999,385.01999999999998,32062.5,0.7079375,254.25,423.5625,-14,-37.5,8.0820271120000005,1.186523424,0.287109375,1.186523424,277.4375,1440.75,28.6875,94.1875,436,21.78125,752,1515,30.09375,94,422,19.59375,784,-0.175781248,0,-649.0145886,36.937819571999995,1.9268175439999999,34048,0,-0.126342772,4.5208739720000004,-89.98901265,-103.2714832,0.34375,0.15625,31.65625,-0.241699216,-0.10986328,0,-2.189110958,9.5723156784002867,1.5413718641588332,0.18079837911430729,0.10691076966633339,1.0394719680486411,1.3798794305733608,20.042665362067499,14.991596623976111,-2.082245513,0.24688946461472394,-0.129204143,0.13366932520418118,128.80959291367029,125.15939604265297,-30.44727917,43.761733796494021,7.4014121030278739,43.131293091633125,8.1877899169921875,11.282485961914063,6.6826506863577748,44.028771235443998,11.282485961914063,58.678562674655154,58.426485776416499,-52.52454865,-62.54418758,-62.24066597,-80.03319875,28.85998535,302.00998535156248,27.35998535,300.50998535156248,94.217378400659527,94.013385629861673,31782.158622154457,0,0,0,0,249.7886211027693,451.45577201484861,0.69256314906737548,4.7411887342657693,-0.201458877
234:15:35:51.300000,709.8,255.3372863051431,-17.81271369,2,0.001929473,50.003394663588786,0.001925817,50.003394663588786,0.001999175,50.003394663588786,0.002172691,50.020367981532978,234,15,35,51.289999999999999,7679,34055.774278215191,10380.200000000001,0,1,35,10.819519999999999,1,117,13.141029999999997,385.02999999999997,32063,0.7079375,254.1875,423.5625,-14,-37.5,8.0810505500000005,1.142578112,0.287109375,1.142578112,277.4375,1440.5,28.6875,94.1875,436,21.78125,752,1515,30.09375,94,422,19.59375,784,-0.175781248,0,-649.0022617,36.955203783999998,1.8588043889999999,34048,0,-0.197753904,4.4989013160000004,-89.98901265,-103.2714832,0.03125,-0.15625,31.5,-0.373535152,-0.087890624,-0.043945312,-4.879364968,10.122031628060427,3.4098496609048539,0.17302789200785718,0.10265756273972215,1.0377199140116495,1.3696452483545158,20.050123786474241,14.992440085798329,-2.083831669,0.24688946461472394,-0.129204143,0.15339095801151359,128.80959291367029,125.15939604265297,-30.44727917,43.760980589801711,7.3969573761542433,43.131293091633125,8.1873931884765625,11.280990600585937,6.6747479966256122,44.014546393926103,11.280990600585937,58.678562674655154,58.426485776416499,-52.52454865,-62.54418758,-62.24066597,-80.03319875,28.85998535,302.00998535156248,27.35998535,300.50998535156248,94.227321597002828,94.001013331227711,31783.20646893758,0,0,0,0,249.74579437769066,451.38743530157103,0.69246809399428189,4.7294452532964577,-0.209114161
234:15:35:51.500000,710,255.33007517973277,-17.81992482,2,0.001929473,49.99999999999995,0.001925817,49.99999999999995,0.001999175,50.003394663588786,0.002172691,50.020367981532978,234,15,35,51.489999999999995,8840,34056.430446194187,10380.4,0,1,35,10.821029999999999,1,117,13.173299999999998,385.02999999999997,32063,0.70774999999999999,254.1875,423.5,-14,-37.5,8.0810505500000005,1.142578112,0.28515625,1.142578112,277.4375,1440.25,28.6875,94.1875,436,21.78125,752,1514.75,30.09375,94,422,19.59375,786,-0.175781248,0,-648.9981121,36.978747605999999,1.733245602,34048,0,-0.280151364,4.487914988,-89.98901265,-103.2714832,0,-0.03125,31.6875,-0.32958984,-0.043945312,0.065917967999999993,-3.458416608,8.3229612473544421,3.0140824697407425,0.17867915535800272,0.10832850530853655,1.0310621086710885,1.3477148578855633,20.060565580643679,14.992440085798329,-2.085417824,0.24688946461472394,-0.128912872,0.15141879473078745,128.80959291367029,125.15939604265297,-30.44727917,43.761733796494021,7.4014121030278739,43.131293091633125,8.1873931884765625,11.280990600585937,6.6668453068934639,44.000321552408238,11.280990600585937,58.67393366465484,58.426485776416499,-52.52837394,-62.55107309,-62.24066597,-80.03319875,28.85998535,302.00998535156248,27.35998535,300.50998535156248,94.185698462512192,93.926230316578454,31783.20646893758,0,0,0,0,249.74579437769066,451.38106131202636,0.69246809399428189,4.7328005335734034,-0.208418226
234:15:35:51.700000,710.2,255.33052415426636,-17.81947585,2,0.001929473,49.99999999999995,0.001925817,49.99999999999995,0.001999175,50.003394663588786,0.002172691,50.020367981532978,234,15,35,51.689999999999998,6858,34056.758530183688,10380.5,0,1,35,10.822560000000001,1,117,13.20609,385.01999999999998,32063.5,0.70781250000000007,254.125,423.5,-14,-37.5,8.0810505500000005,1.142578112,0.28515625,1.142578112,277.4375,1440.25,28.6875,94.1875,436,21.78125,752,1514.75,30.09375,94,422,19.59375,788,-0.175781248,0,-648.9987223,36.98779441,1.639949441,34048,0,-0.35705566,4.4769286600000004,-89.98901265,-103.2714832,0,0.125,31.40625,-0.395507808,0,0.021972656,-3.200062361,12.670714667394122,-0.821814922,0.18150478703307549,0.10442973229247698,1.0335149843228741,1.3389427016979809,20.063548950406375,14.990753162153894,-2.085417824,0.24688946461472394,-0.129204143,0.15339095801151359,128.80991880197396,125.15939604265297,-30.44865784,43.761357145641185,7.3991847842854446,43.131293091633125,8.187194824,11.28009033203125,6.6628939620273826,43.993209131649287,11.28009033203125,58.678562674655154,58.431094162595173,-52.52837394,-62.55107309,-62.24066597,-80.03319875,28.85998535,302.00998535156248,27.35998535,300.50998535156248,94.163969652826751,93.978751397934346,31783.730407746949,0,0,0,0,249.71842848060342,451.33691891075853,0.69240526351339782,4.7328005335734034,-0.209114161
234:15:35:51.900000,710.4,255.3248019511951,-17.82519805,2,0.001929473,49.99999999999995,0.001925817,50.003394663588786,0.001999175,50.003394663588786,0.002172691,50.016973317944142,234,15,35,51.889999999999993,8020,34057.414698162698,10380.700000000001,0,1,35,10.824069999999999,1,117,13.238359999999997,385.01999999999998,32064,0.70781250000000007,254.1875,423.5,-14,-37.5,8.0810505500000005,1.0986328000000001,0.28515625,1.0986328000000001,277.4375,1440.5,28.6875,94.1875,436,21.78125,752,1515,30.09375,94,422,19.59375,790,-0.175781248,0,-648.9993326,36.989773880000001,1.503009678,34048,0,-0.401000972,4.4769286600000004,-89.98901265,-103.2714832,0.15625,-0.09375,31.4375,-0.175781248,0.043945312,-0.065917968,-0.414329607,8.7477417539099633,3.5164023662182728,0.18079837911430729,0.10620190184523004,1.034215806,1.3330945975729307,20.069515689931773,14.992440085798329,-2.085417824,0.24688946461472394,-0.129204143,0.15339095801151359,128.80991880197396,125.15939604265297,-30.44865784,43.761357145641185,7.3991847842854446,43.131293091633125,8.1869964599609375,11.279586791992188,6.654991272,43.978984290131393,11.279586791992188,58.67393366465484,58.431094162595173,-52.52837394,-62.55107309,-62.24066597,-80.03319875,28.85998535,302.00998535156248,27.339996337890625,300.4899963378906,94.177626591249194,93.970714957605111,31784.254356835459,0,0,0,0,249.70652919939727,451.31550360368914,0.69238218731237566,4.7311228934349288,-0.22024912
234:15:35:52.100000,710.6,255.32119631020637,-17.82880369,2,0.001929473,50.003394663588786,0.001925817,49.99999999999995,0.001999175,50.003394663588786,0.002172691,50.020367981532978,234,15,35,52.089999999999996,9181,34057.414698162698,10380.700000000001,0,1,35,10.824069999999999,1,117,13.238359999999997,385.01999999999998,32064,0.70781250000000007,254.1875,423.5,-14,-37.5,8.0810505500000005,1.0986328000000001,0.283203125,1.0986328000000001,277.4375,1440.25,28.6875,94.1875,436,21.78125,752,1515,30.09375,94,422,19.59375,782,-0.175781248,0,-649.0009802,36.986207790000002,1.4285794679999999,34048,0,-0.43945312,4.4824218240000002,-89.98901265,-103.2714832,-0.0625,0.15625,31.84375,-0.131835936,0.021972656,0.021972656,-2.587875122,5.6243556762952949,2.869475226815382,0.17938556327677091,0.10513860011357856,1.0366686815894557,1.3257844674166108,20.07399074457582,15.000874704020507,-2.088590136,0.24688946461472394,-0.129495413,0.15339095801151359,128.80926704223512,125.15939604265297,-30.44590052,43.761733796494021,7.4014121030278739,43.131293091633125,8.1869964599609375,11.279586791992188,6.6510399274291387,43.97187186937245,11.279586791992188,58.678562674655154,58.431094162595173,-52.52837394,-62.55107309,-62.24066597,-80.03319875,28.85998535,302.00998535156248,27.339996337890625,300.4899963378906,94.217378400659527,93.895362976108316,31784.254356835459,0,0,0,0,249.70652919939727,451.31231690304111,0.69238218731237566,4.7294452532964577,-0.196587332
234:15:35:52.300000,710.8,255.31714290736102,-17.83285709,2,0.001929473,49.99999999999995,0.001925817,49.99999999999995,0.001999175,49.99999999999995,0.002172692,50.016973317944142,234,15,35,52.289999999999999,7199,34057.742782152192,10380.799999999999,0,1,35,10.8256,1,117,13.271139999999997,385.02999999999997,32064.5,0.70787500000000003,254.125,423.5,-14,-37.5,8.0810505500000005,1.0986328000000001,0.283203125,1.0986328000000001,277.4375,1440,28.6875,94.1875,436,21.78125,752,1514.75,30.09375,94,422,19.59375,788,-0.175781248,0,-649.0043976,36.978812443999999,1.340844119,34048,0,-0.461425776,4.487914988,-89.99999898,-103.2824695,-0.0625,-0.09375,31.0625,-0.197753904,0.021972656,-0.043945312,-1.531992546,12.07102454049209,4.3345749248748859,0.18185799099246047,0.10442973229247698,1.0387711464338452,1.3243224413853483,20.075482429457171,15.016057016820433,-2.088590136,0.24688946461472394,-0.129204143,0.15339095801151359,128.80828952913689,125.15939604265297,-30.44176463,43.761357145641185,7.3991847842854446,43.131293091633125,8.1869964599609375,11.279098510742188,6.6431372376969762,43.957647027854556,11.279098510742188,58.678562674655154,58.431094162595173,-52.53219926,-62.55795866,-62.24066597,-80.03319875,28.85998535,302.00998535156248,27.35998535,300.50998535156248,94.189424408254766,93.923760182512709,31784.254356835459,0,0,0,0,249.68748900649911,451.27404182289342,0.69233324466545387,4.7311228934349288,-0.208418226
234:15:35:52.500000,711,255.31398670179945,-17.8360133,2,0.001929473,49.99999999999995,0.001925817,50.003394663588786,0.001999175,49.99999999999995,0.002172691,50.020367981532978,234,15,35,52.489999999999995,8360,34058.070866141694,10380.9,0,1,35,10.827109999999999,1,117,13.30341,385.00999999999999,32065,0.70768750000000002,254.125,423.5,-14,-37.5,8.0810505500000005,1.0986328000000001,0.283203125,1.0986328000000001,277.4375,1440,28.78125,94.1875,436,21.78125,752,1514.5,30.09375,94,422,19.59375,784,-0.175781248,0,-649.000431,36.969513911999996,1.2705234939999999,34048,0,-0.477905268,4.5043944800000002,-90.00549214,-103.2879627,0.0625,-0.0625,31.6875,-0.065917968,0.087890624000000001,-0.021972656,0.085529698,11.621256945315508,1.3472937223379517,0.17620672764231493,0.10513860011357856,1.0408736112782329,1.315550285197773,20.084432538745258,15.018587402287086,-2.091762447,0.24688946461472394,-0.128912872,0.13564148848490731,128.80828952913689,125.15939604265297,-30.44176463,43.762864318979396,7.4080935229679934,43.131293091633125,8.186798095703125,11.27819824,6.6352345479648278,43.94342218633669,11.27819824,58.67393366465484,58.431094162595173,-52.52837394,-62.55107309,-62.24066597,-80.03319875,28.829986572265625,301.9799865722656,27.35998535,300.50998535156248,94.218621185440199,93.97751493,31784.778316203581,0,0,0,0,249.66011583275184,451.22669978285194,0.6922703902767543,4.7328005335734034,-0.207026356
234:15:35:52.700000,711.2,255.31038095894377,-17.83961904,2,0.001929473,49.99999999999995,0.001925817,49.99999999999995,0.001999175,50.003394663588786,0.002172692,50.016973317944142,234,15,35,52.689999999999998,9522,34058.398950131195,10381,0,1,35,10.82864,1,117,13.336199999999998,385.02999999999997,32065,0.70774999999999999,254.125,423.4375,-14,-37.5,8.0810505500000005,1.0986328000000001,0.283203125,1.0986328000000001,277.4375,1440,28.78125,94.1875,436,21.78125,752,1514.75,30.09375,94,422,19.59375,786,-0.175781248,0,-649.0037263,36.957999445999995,1.2001017979999999,34048,0,-0.49438476,4.509887644,-90.00549214,-103.2879627,-0.125,0.21875,32.03125,0,0.065917967999999993,0.021972656,-1.751032017,9.5473285897793403,2.2187426336512885,0.17726633952046633,0.10691076966633339,1.0471810058113959,1.3082401550414531,20.093382648033352,15.018587402287086,-2.091762447,0.24688946461472394,-0.129204143,0.13564148848490731,128.80796372517193,125.15939604265297,-30.44038602,43.761733796494021,7.4014121030278739,43.131293091633125,8.186798095703125,11.27819824,6.6312832030987465,43.936309765577747,11.27819824,58.678562674655154,58.426485776416499,-52.52837394,-62.55107309,-62.24066597,-80.03319875,28.829986572265625,301.9799865722656,27.35998535,300.50998535156248,94.216135648664164,93.979987895373924,31784.778316203581,0,0,0,0,249.66011583275184,451.22351348425826,0.6922703902767543,4.7328005335734034,-0.197979202
234:15:35:52.900000,711.4,255.30826461715432,-17.84173538,2,0.001929473,49.99999999999995,0.001925817,49.99999999999995,0.001999175,50.003394663588786,0.002172692,50.016973317944142,234,15,35,52.889999999999993,7540,34059.055118110206,10381.200000000001,0,1,35,10.83015,1,117,13.368469999999997,385.01999999999998,32065.5,0.70774999999999999,254.125,423.4375,-14,-37.5,8.0800739880000005,1.0986328000000001,0.283203125,1.0986328000000001,277.375,1440,28.6875,94.1875,436,21.78125,752,1514.75,30.09375,94,422,19.59375,784,-0.175781248,0,-649.002933,36.952030535999995,1.160989228,34052,0,-0.505371088,4.5153808079999997,-90.0109853,-103.2934559,-0.25,0,31.75,-0.087890624,0.021972656,0,-4.491833597,11.871127831524745,3.5125969124570986,0.17761954347985132,0.10832850530853655,1.0436768977374165,1.3111642071039782,20.090399278270656,15.05148241335359,-2.09810707,0.24688946461472394,-0.129204143,0.1632517744151869,128.80796372517193,125.15939604265297,-30.44038602,43.761357145641185,7.3991847842854446,43.131293091633125,8.1865997314453125,11.277694702148438,6.6273318582326652,43.929197344818796,11.277694702148438,58.678562674655154,58.426485776416499,-52.52454865,-62.54418758,-62.24066597,-80.03319875,28.85998535,302.00998535156248,27.339996337890625,300.4899963378906,94.203088731799966,93.900917600042078,31785.302285851736,0,0,0,0,249.64821338702396,451.20527907369569,0.69224730322561245,4.7328005335734034,-0.215377576
234:15:35:53.100000,711.6,255.30275541282705,-17.84724459,2,0.001929473,49.99999999999995,0.001925817,50.003394663588786,0.001999175,49.99999999999995,0.002172691,50.016973317944142,234,15,35,53.089999999999996,8701,34059.055118110206,10381.200000000001,0,1,35,10.83015,1,117,13.368469999999997,385.01999999999998,32066,0.70774999999999999,254.125,423.4375,-14,-37.5,8.0800739880000005,1.0986328000000001,0.283203125,1.0986328000000001,277.375,1440,28.6875,94.1875,436,21.78125,752,1514.5,30.09375,94,422,19.59375,786,-0.175781248,0,-648.9965865,36.937083469999997,1.1117581159999999,34052,0,-0.483398432,4.5318603,-90.0109853,-103.2934559,-0.0625,0.03125,31.96875,0.13183593599999999,0.065917967999999993,0.021972656,-3.610059318,6.9236842845830324,4.0453604390241935,0.17655993160169814,0.10761963748743497,1.0517363463075711,1.3126262331352407,20.09189096,15.120646282775464,-2.125071717,0.24688946461472394,-0.129204143,0.1632517744151869,128.80828952913689,125.15939604265297,-30.44176463,43.762110542344885,7.4036393323860699,43.131293091633125,8.1863861083984375,11.277694702148438,6.623380513366584,43.922084924059853,11.277694702148438,58.678562674655154,58.435702520658751,-52.52837394,-62.55107309,-62.24066597,-80.03319875,28.85998535,302.00998535156248,27.339996337890625,300.4899963378906,94.19687718419074,93.995446859188206,31785.866572354575,0,0,0,0,249.65654516686786,451.22132422982651,0.69227680858578744,4.7344781737118744,-0.181276764
234:15:35:53.300000,711.8,255.29554393881162,-17.85445606,2,0.001929473,49.99999999999995,0.001925817,50.003394663588786,0.001999175,50.003394663588786,0.002172691,50.020367981532978,234,15,35,53.289999999999999,6719,34059.055118110206,10381.200000000001,0,1,35,10.83169,1,117,13.401259999999999,385.01999999999998,32066,0.70774999999999999,254.125,423.4375,-14,-37.5,8.0800739880000005,1.0986328000000001,0.283203125,1.0986328000000001,277.375,1439.5,28.6875,94.1875,436,21.78125,752,1514.5,30.09375,94,422,19.59375,788,-0.175781248,0,-648.9885924,36.917769373999995,1.1161537509999999,34052,0,-0.450439448,4.5538329559999999,-90.01647847,-103.298949,-0.125,-0.125,32.15625,0.175781248,0.15380859199999999,-0.021972656,-0.891723325,0.60195086349085614,2.8123934203974841,0.1790323593173877,0.10797407139798487,1.057693330033338,1.3140882591665033,20.09189096,15.147637061086439,-2.145691741,0.24549856693622596,-0.129204143,0.16127961113446077,128.80666067797415,125.15939604265297,-30.43487173,43.762487383178453,7.4058664723645959,43.131293091633125,8.1863861083984375,11.277694702148438,6.6154778236344214,43.907860082541958,11.277694702148438,58.683191639173231,58.431094162595173,-52.52837394,-62.55107309,-62.24066597,-80.03319875,28.85998535,302.00998535156248,27.339996337890625,300.4899963378906,94.138528652011189,93.947231703066535,31785.866572354575,0,0,0,0,249.65654516686786,451.21495141604998,0.69227680858578744,4.7294452532964577,-0.259917412
234:15:35:53.500000,712,255.29481627766143,-17.85518372,2,0.001929473,49.99999999999995,0.001925817,49.99999999999995,0.001999175,50.003394663588786,0.002172692,50.016973317944142,234,15,35,53.489999999999995,7881,34059.383202099707,10381.300000000001,0,1,35,10.8332,1,117,13.43352,385.00999999999999,32066.5,0.70781250000000007,254.125,423.4375,-14,-37.5,8.0800739880000005,1.0986328000000001,0.283203125,1.0986328000000001,277.375,1439.5,28.78125,94.1875,436,21.78125,752,1514.5,30.09375,94,422,19.59375,784,-0.175781248,0,-648.9765096,36.908257257999999,1.1657567279999999,34052,0,-0.401000972,4.5922851040000001,-90.01647847,-103.298949,0,0.03125,32.625,0.32958984000000002,0.24169921599999999,0,-3.890879152,8.223012893,2.4052098679497647,0.17797274743923452,0.10655633575578172,1.0636503137591031,1.315550285197773,20.093382648033352,15.130767824642078,-2.145691741,0.24688946461472394,-0.129204143,0.14747446816932097,128.80503224843753,125.15939604265297,-30.42797914,43.763618475422071,7.4125473560675825,43.131293091633125,8.186187744140625,11.278091430664063,6.6194291685005027,43.914972503300902,11.278091430664063,58.678562674655154,58.435702520658751,-52.52837394,-62.55107309,-62.24066597,-80.03319875,28.829986572265625,301.9799865722656,27.319992065429688,300.46999206542966,94.181351898366984,94.017716703850695,31786.390563355046,0,0,0,0,249.67975345592396,451.26191860555832,0.69234397878605103,4.7512545750966098,-0.187540178
234:15:35:53.700000,712.2,255.29188403274111,-17.85811597,2,0.001929473,50.003394663588786,0.001925817,49.99999999999995,0.001999175,50.003394663588786,0.002172691,50.020367981532978,234,15,35,53.689999999999998,9042,34059.711286089201,10381.4,0,1,35,10.834729999999999,1,117,13.466309999999998,385,32066.5,0.70781250000000007,254.125,423.4375,-14,-37.5,8.0800739880000005,1.0986328000000001,0.283203125,1.0986328000000001,277.375,1439.5,28.6875,94.1875,436,21.78125,752,1514.75,30.09375,93.875,422,19.59375,782,-0.175781248,0,-648.9655863,36.908043673999998,1.2144843919999999,34052,0,-0.362548824,4.6307372520000003,-90.02197163,-103.3044422,0,-0.21875,32.71875,0.175781248,0.19775390400000001,0,-4.407587647,6.6988004869947417,2.5878716484870665,0.17832595139861951,0.10939180704018803,1.0692568866774721,1.3243224413853483,20.09189096,15.063290878864638,-2.113968627,0.24688946461472394,-0.128912872,0.15141879473078745,128.80470661312108,125.15939604265297,-30.42660066,43.763995696033156,7.4147741385728798,43.131293091633125,8.1858978271484375,11.27758789,6.6154778236344214,43.907860082541958,11.27758789,58.683191639173231,58.435702520658751,-52.52454865,-62.54418758,-62.24066597,-80.03319875,28.829986572265625,301.9799865722656,27.339996337890625,300.4899963378906,94.149075691172101,93.985552536529838,31787.156414850255,0,0,0,0,249.67142255783213,451.25192826930055,0.69233354034496231,4.7495769349581352,-0.200067007
234:15:35:53.900000,712.4,255.28827834742509,-17.86172165,2,0.001929473,49.99999999999995,0.001925817,49.99999999999995,0.001999175,50.003394663588786,0.002172691,50.020367981532978,234,15,35,53.889999999999993,7060,34060.039370078703,10381.5,0,1,35,10.83624,1,117,13.49858,385.00999999999999,32067,0.70781250000000007,254.125,423.4375,-14,-37.5,8.0800739880000005,1.142578112,0.28515625,1.142578112,277.375,1439.5,28.6875,94.1875,436,21.78125,752,1514.75,30.09375,94,422,19.59375,784,-0.175781248,0,-648.9392239,36.912544193999999,1.347165824,34052,0,-0.32958984,4.6636962359999998,-90.01647847,-103.298949,-0.0625,-0.125,32.5,0.15380859199999999,0.13183593599999999,-0.021972656,-2.127330594,9.0975609946028726,4.384045823770407,0.17797274743923452,0.1097462409507397,1.0808204433216062,1.3301705455104056,20.088907593389305,15.099559737220012,-2.12031325,0.24549856693622596,-0.128621602,0.14944663145004711,128.80340424047887,125.15939604265297,-30.42108687,43.763241349732375,7.4103204842008079,43.131293091633125,8.1858978271484375,11.27758789,6.6115264787683543,43.900747661783036,11.27758789,58.687820558188889,58.435702520658751,-52.52837394,-62.55107309,-62.24066597,-80.03319875,28.829986572265625,301.9799865722656,27.339996337890625,300.4899963378906,94.199361704933608,93.931170974508021,31787.156414850255,0,0,0,0,249.67142255783213,451.24874156753191,0.69233354034496231,4.7596427757889757,-0.209810096
234:15:35:54.100000,712.6,255.29131127596187,-17.85868872,2,0.001929473,49.99999999999995,0.001925817,49.99999999999995,0.001999175,50.003394663588786,0.002172691,50.020367981532978,234,15,35,54.089999999999996,8221,34060.039370078703,10381.5,0,1,35,10.83624,1,117,13.49858,385.00999999999999,32067.5,0.70787500000000003,254.125,423.4375,-14,-37.5,8.0800739880000005,1.142578112,0.28515625,1.142578112,277.375,1439.25,28.6875,94.1875,436,21.78125,752,1514.5,30.09375,94,422,19.59375,784,-0.175781248,0,-648.9289109,36.916346751999995,1.398473659,34052,0,-0.296630856,4.6856688919999998,-90.0109853,-103.2934559,0.0625,-0.09375,33.25,0.24169921599999999,0.087890624000000001,0.087890624000000001,-0.565972317,10.271954159785992,1.2141028406961993,0.17691313556108312,0.11151841050349276,1.0836237297807916,1.3316325715416681,20.08741590850796,15.19740131,-2.158380987,0.24688946461472394,-0.128912872,0.16522393769592725,128.80275315532643,125.15939604265297,-30.41833004,43.763618475422071,7.4125473560675825,43.131293091633125,8.1859893798828125,11.276687622070312,6.607575133902273,43.893635241024093,11.276687622070312,58.687820558188889,58.44031085058522,-52.52454865,-62.54418758,-62.24066597,-80.03319875,28.829986572265625,301.9799865722656,27.319992065429688,300.46999206542966,94.195013879639461,93.983079281329978,31786.914564636936,0,0,0,0,249.63273924164753,451.17848103443748,0.69223063086025438,4.7562874955120265,-0.203546682
234:15:35:54.300000,712.8,255.28417047901311,-17.86582952,2,0.001929473,49.99999999999995,0.001925817,50.003394663588786,0.001999175,50.003394663588786,0.002172691,50.016973317944142,234,15,35,54.289999999999999,9383,34060.367454068204,10381.6,0,1,35,10.837769999999999,1,117,13.531369999999997,384.99000000000001,32068,0.70768750000000002,254.125,423.375,-14,-37.5,8.0800739880000005,1.186523424,0.287109375,1.186523424,277.375,1439,28.6875,94.1875,436,21.78125,752,1514.5,30.09375,94,422,19.59375,784,-0.175781248,0,-648.9049284,36.935954525999996,1.589194636,34052,0,-0.24719238,4.7131347120000004,-90.00549214,-103.2879627,0.15625,-0.25,33.09375,0.21972656000000002,0.15380859199999999,-0.021972656,-0.363782036,14.494772136721053,2.2606026250244042,0.17938556327677091,0.10726520357688329,1.0811708541290042,1.3360186496354558,20.085924223626609,15.219331315974966,-2.179001011,0.24688946461472394,-0.128912872,0.1632517744151869,128.80210213761569,125.15939604265297,-30.41557327,43.764373011550305,7.4170008317212375,43.131293091633125,8.1855926513671875,11.276687622070312,6.6036237890361917,43.886522820265142,11.276687622070312,58.692449431682462,58.44031085058522,-52.52454865,-62.54418758,-62.24066597,-80.03319875,28.829986572265625,301.9799865722656,27.319992065429688,300.46999206542966,94.214271582140739,93.929318166874879,31787.962598046837,0,0,0,0,249.64821338702396,451.21101217897575,0.6922854314905823,4.7730638968967583,-0.207722291
234:15:35:54.500000,713,255.27695902071093,-17.87304098,2,0.001929473,49.99999999999995,0.001925817,49.99999999999995,0.001999175,49.99999999999995,0.002172691,50.020367981532978,234,15,35,54.489999999999995,7401,34060.695538057713,10381.700000000001,0,1,35,10.839269999999997,1,117,13.563629999999998,384.96000000000004,32068.5,0.70774999999999999,254.125,423.375,-14,-37.5,8.0790974260000006,1.186523424,0.287109375,1.186523424,277.375,1439,28.78125,94.1875,436,21.78125,752,1514.5,30.09375,94,422,19.59375,788,-0.175781248,0,-648.8775897,36.944135555999999,1.744451134,34052,0,-0.19226074,4.746093696,-89.99999898,-103.2824695,0.0625,-0.21875,33.1875,0.24169921599999999,0.24169921599999999,0.087890624000000001,-3.284308311,10.371902514269664,2.7591170677407604,0.17867915535800272,0.11045510877184128,1.0871278378547711,1.3506389099480884,20.079957484101211,15.370310982151988,-2.244033395,0.24688946461472394,-0.128621602,0.16127961113446077,128.80112573749599,125.15939604265297,-30.4114382,43.765127927241515,7.4214539499653203,43.131293091633125,8.1855926513671875,11.276687622070312,6.5957210993040292,43.872297978747255,11.276687622070312,58.692449431682462,58.435702520658751,-52.52454865,-62.54418758,-62.24066597,-80.03319875,28.829986572265625,301.9799865722656,27.319992065429688,300.46999206542966,94.235401989498399,93.941671598605907,31787.962598046837,0,0,0,0,249.64821338702396,451.20463906078822,0.6922854314905823,4.7680309764813416,-0.213289771
234:15:35:54.700000,713.2,255.2754349,-17.87456515,2,0.001929473,50.003394663588786,0.001925817,50.003394663588786,0.001999175,49.99999999999995,0.002172691,50.020367981532978,234,15,35,54.689999999999998,8562,34061.023622047207,10381.799999999999,0,1,35,10.840809999999999,1,117,13.59642,384.95000000000005,32069,0.70774999999999999,254.0625,423.4375,-14,-37.5,8.0790974260000006,1.230468736,0.2890625,1.230468736,277.375,1439,28.78125,94.1875,436,21.78125,752,1514.75,30.09375,94,422,19.59375,794,-0.175781248,0,-648.8382292,36.960715014000002,2.005412642,34052,0,-0.1373291,4.8120116639999999,-89.99450581,-103.2769764,0.125,-0.125,33.84375,0.30761718399999999,0.417480464,0.021972656,-2.728285039,9.5723156784002867,2.1692717347557675,0.18185799099246047,0.10407529838192531,1.0944864648101298,1.3521009359793581,20.076974114338515,15.445379084329389,-2.293204222,0.24549856693622596,-0.128330332,0.16127961113446077,128.79917339242559,125.15939604265297,-30.4031684,43.765505527384931,7.4236803750701483,43.131293091633125,8.185394287109375,11.276092529296875,6.5917697544379479,43.865185557988305,11.276092529296875,58.697078259633543,58.444919152352398,-52.52837394,-62.55107309,-62.24066597,-80.03319875,28.829986572265625,301.9799865722656,27.319992065429688,300.46999206542966,94.156522083006536,93.894745836236254,31788.486630175736,0,0,0,0,249.63273924164753,451.18042041100455,0.69225316167733286,4.7697086166198126,-0.198675137
234:15:35:54.900000,713.4,255.27819042339041,-17.87180958,2,0.001929473,49.99999999999995,0.001925817,49.99999999999995,0.001999175,50.003394663588786,0.002172692,50.016973317944142,234,15,35,54.889999999999993,9723,34061.351706036708,10381.9,0,1,35,10.842319999999999,1,117,13.628679999999999,384.92000000000002,32069.5,0.70762500000000006,254,423.3125,-14,-37.5,8.0790974260000006,1.230468736,0.2890625,1.230468736,277.375,1439,28.78125,94.1875,436,21.78125,752,1514.75,30.09375,94,422,19.59375,776,-0.175781248,0,-648.8065578,36.978495881999997,2.2405667189999998,34052,0,-0.071411132,4.9108886160000003,-89.98351948,-103.26599,0.125,-0.25,34.28125,0.28564452800000001,0.593261712,0.021972656,-2.806914593,11.296424793243659,1.9828045004572914,0.17973876723615589,0.10761963748743497,1.1074516646838557,1.3462528318543008,20.084432538745258,15.48586525179585,-2.324927336,0.24688946461472394,-0.127747791,0.16127961113446077,128.79722165417778,125.15939604265297,-30.39489905,43.765883222373127,7.4259067108362293,43.131293091633125,8.185089111328125,11.274688720703125,6.5878184095718666,43.858073137229361,11.274688720703125,58.701707042022178,58.444919152352398,-52.52837394,-62.55107309,-62.24066597,-80.03319875,28.80999755859375,301.95999755859373,27.319992065429688,300.46999206542966,94.23602362,93.912028819732043,31789.292853530827,0,0,0,0,249.58988206186208,451.1129546889722,0.69215453631615487,4.7780968173121785,-0.227208469
234:15:35:55.100000,713.6,255.26737287816661,-17.88262712,2,0.001929473,49.99999999999995,0.001925817,50.003394663588786,0.001999175,50.003394663588786,0.002172691,50.016973317944142,234,15,35,55.089999999999996,7742,34061.351706036708,10381.9,0,1,35,10.842319999999999,1,117,13.628679999999999,384.92000000000002,32070,0.70750000000000002,254,423.25,-14,-37.5,8.0790974260000006,1.2744140479999999,0.291015625,1.2744140479999999,277.375,1439,28.78125,94.1875,436,21.78125,752,1514.5,30.09375,93.875,422,19.59375,776,-0.175781248,0,-648.7468153,37.015998943999996,2.68440762,34052,0,0,5.0427245520000001,-89.97802632,-103.2604969,0.1875,-0.3125,34.46875,0.37353515199999998,0.72509764799999998,0.10986328000000001,1.826612669253791,7.7232711204524094,3.0140824697407425,0.17867915535800272,0.11293614614569769,1.1337324752387072,1.3462528318543008,20.082940853863914,15.566837586728777,-2.342375049,0.24688946461472394,-0.12716525,0.1632517744151869,128.79462028031662,125.15939604265297,-30.38387394,43.767394950467427,7.4348111606040295,43.131293091633125,8.185089111328125,11.274688720703125,6.575964374973637,43.836735874952545,11.274688720703125,58.706335778828532,58.454135671320714,-52.52454865,-62.54418758,-62.24066597,-80.03319875,28.80999755859375,301.95999755859373,27.319992065429688,300.46999206542966,94.239131868856788,94.03009340011981,31789.292853530827,0,0,0,0,249.58988206186208,451.10339651543842,0.69215453631615487,4.8150049003585913,-0.219553185
234:15:35:55.300000,713.8,255.26959493649221,-17.88040506,2,0.001929473,49.99999999999995,0.001925817,49.99999999999995,0.001999175,50.003394663588786,0.002172691,50.020367981532978,234,15,35,55.289999999999999,8903,34062.007874015711,10382.1,0,1,35,10.84385,1,117,13.661459999999998,384.88999999999999,32071,0.70737499999999998,253.9375,423.1875,-14,-37.5,8.0790974260000006,1.3183593600000001,0.29296875,1.3183593600000001,277.3125,1438.75,28.78125,94.1875,436,21.78125,752,1514.5,30.09375,94,422,19.59375,780,-0.175781248,0,-648.6919547,37.043753422000002,3.043184879,34056,0,0.093383787999999995,5.2075194720000004,-89.96703999,-103.2495105,0.375,-0.40625,35.5,0.52734374399999995,0.90087889600000004,0.043945312,-3.789784012,13.020533908086918,0.18282487141274828,0.17973876723615589,0.11435388178790085,1.1509026048012103,1.3506389099480884,20.079957484101211,15.603106445084151,-2.366167385,0.24688946461472394,-0.126873979,0.16127961113446077,128.79169502379878,125.15939604265297,-30.37147164,43.768908194853111,7.4437141813156877,43.131293091633125,8.1848907470703125,11.27239990234375,6.5641103403753931,43.815398612675708,11.27239990234375,58.71559311561424,58.458743888477699,-52.52454865,-62.54418758,-62.24066597,-80.03319875,28.80999755859375,301.95999755859373,27.319992065429688,300.46999206542966,94.221106853362699,94.018954226858412,31789.816911764214,0,0,0,0,249.50831122785908,450.96205283715176,0.69195232607286794,4.9525713917133949,-0.243910908
234:15:35:55.500000,714,255.25895108134142,-17.89104892,2,0.001929473,49.99999999999995,0.001925817,49.99999999999995,0.001999175,50.003394663588786,0.002172692,50.016973317944142,234,15,35,55.489999999999995,6921,34062.664041994722,10382.300000000001,0,1,35,10.845359999999998,1,117,13.693719999999999,384.85000000000002,32071.5,0.70725000000000005,253.875,423.125,-14,-37.5,8.0781208640000006,1.406249984,0.294921875,1.406249984,277.3125,1439,28.78125,94.1875,436,21.6875,752,1514.5,30.09375,94,422,19.59375,782,-0.175781248,0,-648.5747276,37.104647745999998,3.8063338599999996,34056,0,0.19226074000000001,5.388793884,-89.9505605,-103.2330311,0.28125,-0.65625,36.09375,0.39550780800000002,0.944824208,0.065917967999999993,-2.818147386,11.821153654282853,2.6982298075616598,0.17620672764231493,0.11470831569845075,1.1733288964746844,1.3681832223232533,20.069515689931773,15.603106445084151,-2.372512008,0.24688946461472394,-0.126000168,0.16127961113446077,128.78714733708799,125.15939604265297,-30.35218116,43.770422954550448,7.4526157732622638,43.131293091633125,8.184295654296875,11.27099609,6.5483049609110822,43.786948929639948,11.27099609,58.720221715553464,58.472568370375271,-52.52454865,-62.54418758,-62.24066597,-80.03319875,28.80999755859375,301.95999755859373,27.319992065429688,300.46999206542966,94.220485424086547,94.01276693758021,31791.389148172475,0,0,0,0,249.47674648287946,450.91110046951729,0.69189369336274564,5.0616180007141516,-0.2258166
234:15:35:55.700000,714.2,255.24452673728229,-17.90547326,2,0.001929473,49.99999999999995,0.001925817,49.99999999999995,0.001999175,49.99999999999995,0.002172691,50.020367981532978,234,15,35,55.689999999999998,8083,34063.320209973717,10382.5,0,1,35,10.8469,1,117,13.7265,384.78999999999996,32072.5,0.707125,253.875,423.0625,-14,-37.5,8.0781208640000006,1.450195296,0.298828125,1.450195296,277.3125,1439,28.78125,94.1875,436,21.78125,752,1514.5,30.09375,94,422,19.59375,784,-0.175781248,0,-648.5271899,37.129953635999996,4.0975556439999998,34056,0,0.30761718399999999,5.5700682959999996,-89.93408101,-103.2165516,0.5,-0.78125,37.03125,0.54931640000000004,0.87890624000000006,0.065917967999999993,-2.307055288,7.8731936521778607,1.2864064621588511,0.17797274743923452,0.115771617,1.2006609394517298,1.3696452483545158,20.063548950406375,15.606480292373025,-2.375684319,0.24688946461472394,-0.125417627,0.17705691738032669,128.7835764704927,125.15939604265297,-30.33702607,43.771939228580074,7.4615159367348083,43.131293091633125,8.184295654296875,11.27099609,6.532499581446757,43.75849924660416,11.27099609,58.734107241317304,58.472568370375271,-52.52454865,-62.54418758,-62.24066597,-80.03319875,28.80999755859375,301.95999755859373,27.319992065429688,300.46999206542966,94.189424408254766,93.924377703848847,31791.389148172475,0,0,0,0,249.47674648287946,450.89836009604016,0.69189369336274564,5.1824080906842234,-0.218161315
234:15:35:55.900000,714.4,255.25063671792361,-17.89936328,2,0.001929473,49.99999999999995,0.001925817,49.99999999999995,0.001999175,50.003394663588786,0.002172692,50.016973317944142,234,15,35,55.889999999999993,9244,34063.97637795272,10382.700000000001,0,1,35,10.848409999999999,1,117,13.758749999999997,384.72999999999996,32074,0.70706250000000004,253.8125,423,-14,-37.5,8.0771443020000007,1.5380859200000001,0.302734375,1.5380859200000001,277.3125,1438.75,28.78125,94.1875,436,21.78125,752,1514.5,30.09375,94,422,19.59375,784,-0.175781248,0,-648.2992042,37.237756345999998,5.5197008939999996,34056,0,0.42297362799999999,5.7403563799999997,-89.91760152,-103.2000721,0.5625,-0.875,37.8125,0.593261712,0.79101561600000003,0.087890624000000001,-1.672402463,8.2979741587334956,0.72319930550222011,0.17444070784539356,0.11683491916175548,1.2185318906290288,1.3871895607296736,20.033715252779405,15.628410299750691,-2.385201253,0.24688946461472394,-0.124543816,0.17508475409960056,128.78162958383328,125.15939604265297,-30.32876029,43.772697933163528,7.4659654828842701,43.131293091633125,8.183685302734375,11.268096923828125,6.5245968917146087,43.744274405086294,11.268096923828125,58.747992355579356,58.481784550108287,-52.52454865,-62.54418758,-62.24066597,-80.03319875,28.80999755859375,301.95999755859373,27.319992065429688,300.46999206542966,94.18756139853501,93.95711795849914,31793.001794497384,0,0,0,0,249.38738764969909,450.7573060618522,0.69168702122538661,5.2931323398234547,-0.201458877
234:15:35:56.100000,714.6,255.25398649623898,-17.8960135,2,0.001929473,49.99999999999995,0.001925817,49.99999999999995,0.001999175,50.003394663588786,0.002172691,50.020367981532978,234,15,35,56.089999999999996,7262,34063.97637795272,10382.700000000001,0,1,35,10.848409999999999,1,117,13.758749999999997,384.72999999999996,32075.5,0.70681250000000007,253.6875,422.875,-14,-37.5,8.0771443020000007,1.669921856,0.306640625,1.669921856,277.25,1438.75,28.78125,94.1875,436,21.78125,752,1514.5,30.09375,94,422,19.59375,780,-0.175781248,0,-648.1602526,37.313727411999999,6.3327961119999996,34056,0,0.50537108799999997,5.8776854800000002,-89.90112202,-103.1835926,0.4375,-1.0625,37.5,0.32958984000000002,0.68115233600000002,0.065917967999999993,-1.756648413,8.7477417539099633,-0.163471421,0.18185799099246047,0.12108812608836672,1.2343003769619401,1.4018098210423133,20.017306719084569,15.68323531819486,-2.410579745,0.24688946461472394,-0.123670004,0.16522393769592725,128.78065636778678,125.15939604265297,-30.32462756,43.773457015962954,7.4704146720243783,43.131293091633125,8.183197021484375,11.265792846679687,6.5166942019824461,43.73004956,11.265792846679687,58.757248869542082,58.491000616409821,-52.52454865,-62.54418758,-62.24066597,-80.03319875,28.80999755859375,301.95999755859373,27.289993286132813,300.43999328613279,94.177626591249194,93.987407563356925,31794.291981679566,0,0,0,0,249.31647037559787,450.64413488497252,0.69152313023117196,5.3854025474394831,-0.21607351
234:15:35:56.300000,714.8,255.2359543789008,-17.91404562,2,0.001929473,49.99999999999995,0.001925817,49.99999999999995,0.001999175,50.003394663588786,0.002172691,50.020367981532978,234,15,35,56.289999999999999,8423,34065.288713910726,10383.1,0,1,35,10.849949999999998,1,117,13.791509999999999,384.60999999999996,32077,0.70668750000000002,253.625,422.8125,-14,-37.5,8.0761677400000007,1.7578124800000001,0.3125,1.7578124800000001,277.25,1438.75,28.78125,94.1875,436,21.78125,752,1514.5,30.09375,93.875,422,19.59375,784,-0.175781248,0,-647.9283614,37.431583826000001,7.6133504259999993,34060,0,0.587768548,6.0205077439999997,-89.8736562,-103.1561268,0.5,-1.21875,37.875,0.351562496,0.61523436799999998,0.10986328000000001,-1.026516845,10.446863780132389,1.3549046298603571,0.1790323593173877,0.12392359737277303,1.2353516093841339,1.4559047841990562,19.909905407627459,15.776016118638839,-2.458164416,0.24688946461472394,-0.123378734,0.16522393769592725,128.77838611952592,125.15939604265297,-30.31498497,43.774596349049453,7.477087786421567,43.131293091633125,8.183197021484375,11.265792846679687,6.4969374776520539,43.694487459773697,11.265792846679687,58.766505200215022,58.495608606968645,-52.52454865,-62.54418758,-62.24066597,-80.03319875,28.80999755859375,301.95999755859373,27.289993286132813,300.43999328613279,94.126123395619743,93.950938805037651,31794.291981679566,0,0,0,0,249.31647037559787,450.62821699168364,0.69152313023117196,5.4642516339477218,-0.230688144
234:15:35:56.500000,715,255.23212298624648,-17.91787701,2,0.001929473,49.99999999999995,0.001925817,49.99999999999995,0.001999175,50.003394663588786,0.002172691,50.020367981532978,234,15,35,56.489999999999995,9585,34066.601049868732,10383.5,0,1,35,10.85148,1,117,13.823740000000001,384.5,32078.5,0.70643750000000005,253.5625,422.6875,-14,-37.5,8.0761677400000007,1.845703104,0.31640625,1.845703104,277.25,1439,28.875,94.1875,436,21.78125,752,1514.5,30.09375,94,422,19.59375,786,-0.175781248,0,-647.7510256,37.528566218000002,8.5546685099999991,34060,0,0.59875487599999999,6.1468505159999998,-89.85168355,-103.1341541,0.6875,-1.3125,38.46875,-0.153808592,0.63720702399999996,0.10986328000000001,1.4503140916028769,8.2729870701125492,3.4897641898899394,0.17797274743923452,0.12356916346222313,1.2444622903764824,1.5392402679810715,19.82935442403463,15.844336526238497,-2.497818309,0.24549856693622596,-0.123378734,0.16719610097665338,128.77708920510838,125.15939604265297,-30.30947519,43.775356376853686,7.4815360831974411,43.131293091633125,8.1819915771484375,11.262496948242188,6.4811320981877287,43.666037776737909,11.262496948242188,58.766505200215022,58.491000616409821,-52.52454865,-62.54418758,-62.24066597,-80.03319875,28.789993286132813,301.93999328613279,27.289993286132813,300.43999328613279,94.119921993385262,93.907090175249465,31797.477398215458,0,0,0,0,249.2347976779827,450.50833292436675,0.69135869679439377,5.4877385958863485,-0.227904404
234:15:35:56.700000,715.2,255.2393069205913,-17.91069308,2,0.001929473,50.003394663588786,0.001925817,49.99999999999995,0.001999175,50.003394663588786,0.002172691,50.020367981532978,234,15,35,56.689999999999998,7603,34068.241469816239,10384,0,1,35,10.853029999999999,1,117,13.856480000000001,384.34000000000003,32080,0.70637499999999998,253.5,422.625,-14,-37.5,8.0751911780000007,1.933593728,0.3203125,1.933593728,277.1875,1438.75,28.875,94.1875,436,21.78125,752,1514.5,30.09375,94,422,19.59375,784,-0.175781248,0,-647.4670199,37.677514359999996,10.04083556,34064,0,0.49987792400000003,6.2402343040000003,-89.84069722,-103.1231678,0.71875,-1.375,38.65625,-0.43945312,0.703124992,0.065917967999999993,-0.813093771,7.2235293480340488,1.9257226940393934,0.18327080682999686,0.12037925826726514,1.2483168092578616,1.5728668667001244,19.801012411289005,15.910126548371498,-2.532713734,0.24688946461472394,-0.123087464,0.16916826425739373,128.77611669601185,125.15939604265297,-30.30534299,43.775736532433918,7.483760097752338,43.131293091633125,8.1812896728515625,11.258193969726563,6.4653267187234178,43.637588093702149,11.258193969726563,58.771133296767914,58.495608606968645,-52.5207234,-62.53730212,-62.24066597,-80.03319875,28.789993286132813,301.93999328613279,27.289993286132813,300.43999328613279,94.156522083006536,93.92314266929651,31799.332372779278,0,0,0,0,249.09403455411254,450.27698028659137,0.69102318798244133,5.499482077,-0.241127168
234:15:35:56.900000,715.4,255.22487940637944,-17.92512059,2,0.001929473,49.99999999999995,0.001925817,49.99999999999995,0.001999175,50.003394663588786,0.002172692,50.016973317944142,234,15,35,56.889999999999993,8764,34070.53805774275,10384.700000000001,0,1,35,10.854559999999999,1,117,13.888680000000001,384.18000000000001,32082,0.70599999999999996,253.375,422.4375,-14,-37.5,8.0742146160000008,2.0214843519999999,0.32421875,2.0214843519999999,277.1875,1438.5,28.875,94.1875,436,21.78125,752,1514.25,30.09375,94,422,19.59375,780,-0.175781248,0,-647.2603316,37.773642416000001,11.058239133999999,34064,0,0.38452148000000003,6.3830565679999998,-89.83520406,-103.1176746,0.53125,-1.4375,38.375,-0.900878896,0.76904296000000005,0.021972656,-2.486779982,7.0985939049294302,-0.578265881,0.17444070784539356,0.11896152262506199,1.257777901057608,1.5582466063874918,19.817420944983841,15.969168875926758,-2.570781471,0.24688946461472394,-0.123378734,0.13169716192344083,128.77514433837521,125.15939604265297,-30.30121089,43.776116782445854,7.4859840230912837,43.131293091633125,8.1812896728515625,11.258193969726563,6.4495213392591069,43.60913841066639,11.258193969726563,58.771133296767914,58.495608606968645,-52.52454865,-62.54418758,-62.24066597,-80.03319875,28.789993286132813,301.93999328613279,27.289993286132813,300.43999328613279,94.181351898366984,93.940436109211433,31799.332372779278,0,0,0,0,249.09403455411254,450.26425405446042,0.69102318798244133,5.5145808381019172,-0.268964566
234:15:35:57.100000,715.6,255.23076164239941,-17.91923836,2,0.001929473,49.99999999999995,0.001925817,49.99999999999995,0.001999175,50.003394663588786,0.002172692,50.016973317944142,234,15,35,57.089999999999996,6782,34070.53805774275,10384.700000000001,0,1,35,10.854559999999999,1,117,13.888680000000001,384.18000000000001,32084,0.70581250000000006,253.25,422.3125,-14,-37.5,8.0742146160000008,2.1093749759999998,0.328125,2.1093749759999998,277.125,1438.5,28.78125,94.1875,436,21.78125,752,1514.25,30.09375,94,422,19.59375,776,-0.175781248,0,-646.9259201,37.89224256,12.659678616999999,34068,0,0.19775390400000001,6.5478514880000001,-89.82971089,-103.1121814,0.46875,-1.625,39,-1.010742176,0.87890624000000006,-0.087890624,-3.677456078,4.2500658021448317,1.5261500491140509,0.18468362266753324,0.12108812608836672,1.2738967981979172,1.4953794870431665,19.902446983220717,16.045080439926377,-2.605676897,0.24688946461472394,-0.123087464,0.11197552911609421,128.77352407886357,125.15939604265297,-30.29432432,43.776497126874212,7.4882078592188179,43.131293091633125,8.1801910400390625,11.25299072265625,6.4297646149287004,43.573576306871658,11.25299072265625,58.780389352206441,58.500216569103316,-52.5207234,-62.53730212,-62.24066597,-80.03319875,28.80999755859375,301.95999755859373,27.289993286132813,300.43999328613279,94.165211029009484,93.913880945337411,31802.236069949733,0,0,0,0,248.93347798709772,450.00629636002935,0.69065170022789724,5.6018181253025254,-0.255045867
234:15:35:57.300000,715.8,255.20911834297672,-17.94088166,2,0.001929473,49.99999999999995,0.001925817,49.99999999999995,0.001999175,50.003394663588786,0.002172692,50.016973317944142,234,15,35,57.289999999999999,7944,34073.162729658754,10385.5,0,1,35,10.856119999999999,1,117,13.921389999999999,383.99000000000001,32086.5,0.70556249999999998,253.125,422.1875,-14,-37.5,8.0732380540000008,2.1972656000000002,0.33203125,2.1972656000000002,277.125,1438.75,28.875,94.1875,436,21.78125,752,1514.5,30.09375,94,422,19.59375,776,-0.175781248,0,-646.6871942,37.938140235999995,13.68271356,34068,0,0.060424803999999999,6.7346190640000003,-89.84069722,-103.1231678,0.1875,-1.6875,39.875,-0.43945312,1.0107421759999999,-0.021972656,-1.56007453,7.273503525275828,2.0018317692632479,0.18256439891122866,0.12463246519387461,1.2861611764568472,1.416430081354946,19.977031227288155,16.11930508028156,-2.658020035,0.24688946461472394,-0.123087464,0.11197552911609421,128.77093253856677,125.15939604265297,-30.28330644,43.777638726505039,7.4948788323784274,43.131293091633125,8.1801910400390625,11.25299072265625,6.4060565457322269,43.530901782318011,11.25299072265625,58.780389352206441,58.509432408012103,-52.52454865,-62.54418758,-62.24066597,-80.03319875,28.80999755859375,301.95999755859373,27.289993286132813,300.43999328613279,94.167073154654403,93.913880945337411,31802.236069949733,0,0,0,0,248.93347798709772,449.98721592584172,0.69065170022789724,5.6404038484874093,-0.257133672
234:15:35:57.500000,716,255.20902665080894,-17.94097335,2,0.001929473,49.99999999999995,0.001925817,49.99999999999995,0.001999175,50.003394663588786,0.002172691,50.020367981532978,234,15,35,57.489999999999995,9105,34075.787401574773,10386.300000000001,0,1,35,10.857659999999999,1,117,13.95356,383.81,32089.5,0.70525000000000004,253,421.9375,-14,-37.5,8.0722614920000009,2.2851562240000001,0.3359375,2.2851562240000001,277.0625,1438.75,28.875,94.1875,436,21.78125,752,1514.5,30.09375,94,422,19.59375,780,-0.175781248,0,-646.2843138,37.995579075999999,15.45443098,34072,0,0.032958983999999997,6.9488524600000003,-89.85168355,-103.1341541,0.3125,-2,39.5625,0,1.0986328000000001,-0.153808592,-0.571588714,14.719655934309344,-0.022669632,0.17867915535800272,0.12392359737277303,1.2994767871379711,1.4032718470735759,19.984489651694897,15.923621937526988,-2.604090741,0.24688946461472394,-0.122213652,0.11197552911609421,128.76834207492487,125.15939604265297,-30.27228936,43.779162180249322,7.5037722145740533,43.131293091633125,8.1787872314453125,11.24829102,6.3862998214018347,43.495339678523301,11.24829102,58.789645223955063,58.514040284742009,-52.5207234,-62.53730212,-62.24066597,-80.03319875,28.789993286132813,301.93999328613279,27.289993286132813,300.43999328613279,94.148455211683455,93.905855595288173,31805.946809240399,0,0,0,0,248.80446990570027,449.78963802831163,0.69037284807020183,5.7611939384574811,-0.258525542
234:15:35:57.700000,716.2,255.22223870262513,-17.9277613,2,0.001929473,49.99999999999995,0.001925817,49.99999999999995,0.001999175,50.003394663588786,0.002172691,50.020367981532978,234,15,35,57.689999999999998,7123,34079.396325459282,10387.4,0,1,35,10.859229999999997,1,117,13.986229999999999,383.56999999999999,32092.5,0.70474999999999999,252.8125,421.6875,-14,-37.5,8.070308368000001,2.373046848,0.33984375,2.373046848,277.0625,1438.5,28.875,94.1875,436,21.78125,752,1514.25,30.09375,94,422,19.59375,780,-0.175781248,0,-646.1358424,38.012311093999998,16.085459184999998,34076,0,0.082397460000000006,7.1575926919999997,-89.86816304,-103.1506336,0.21875,-2.15625,40.03125,0.21972656000000002,0.87890624000000006,-0.087890624,-1.520759753,11.471334413590057,1.206491933173794,0.17408750388601035,0.12250586173056988,1.3240055436558329,1.4559047841990562,19.939739105254436,15.391397527707436,-2.316996558,0.24688946461472394,-0.12104857,0.12775283536197435,128.76931337263255,125.15939604265297,-30.27642067,43.778781175333727,7.5015490027990577,43.131293091633125,8.177093505859375,11.24169922,6.3704944419375096,43.46688999548752,11.24169922,58.794273090895672,58.518648132959598,-52.5207234,-62.53730212,-62.24066597,-80.03319875,28.789993286132813,301.93999328613279,27.289993286132813,300.43999328613279,94.161486998648783,93.963297924819955,31810.424583419077,0,0,0,0,248.61260887092226,449.49696130418846,0.6899431300546025,5.8366877446887742,-0.245302778
234:15:35:57.900000,716.4,255.20419939776804,-17.9458006,2,0.001929473,50.003394663588786,0.001925817,49.99999999999995,0.001999175,49.99999999999995,0.002172691,50.020367981532978,234,15,35,57.889999999999993,8285,34083.005249343798,10388.5,0,1,35,10.86079,1,117,14.018359999999998,383.31,32096,0.70443750000000005,252.625,421.5,-14,-37.5,8.069331806000001,2.4609374719999999,0.34375,2.4609374719999999,277,1438.5,28.875,94.1875,437,21.78125,752,1514,30.09375,94,422,19.59375,792,-0.175781248,0,-645.499057,38.10119255,18.608551767999998,34080,0,0.10986328000000001,7.2564696440000001,-89.87914937,-103.1616199,0.1875,-2.0625,39.21875,0.13183593599999999,0.087890624000000001,-0.10986328,-2.733901436,11.021566818413476,-0.635347687,0.17691313556108312,0.1221514278200182,1.3036817168267483,1.5114617733870617,19.871121600712396,14.991596623976111,-2.118727094,0.24549856693622596,-0.121339841,0.13761365176564766,128.7725521250693,125.15939604265297,-30.29019252,43.777258098919077,7.4926552638578388,43.131293091633125,8.177093505859375,11.24169922,6.3507377176071174,43.43132789169281,11.24169922,58.789645223955063,58.509432408012103,-52.52454865,-62.54418758,-62.24066597,-80.03319875,28.789993286132813,301.93999328613279,27.289993286132813,300.43999328613279,94.190666455679519,93.972569398763326,31810.424583419077,0,0,0,0,248.61260887092226,449.48107562736743,0.6899431300546025,5.8501088657965603,-0.223728795
234:15:35:58.100000,716.6,255.22119474844874,-17.92880525,2,0.001929473,50.003394663588786,0.001925817,49.99999999999995,0.001999175,50.003394663588786,0.002172691,50.020367981532978,234,15,35,58.089999999999996,9446,34083.005249343798,10388.5,0,1,35,10.86079,1,117,14.018359999999998,383.31,32099,0.704125,252.5,421.3125,-14,-37.5,8.068355244000001,2.5488280959999998,0.34765625,2.5488280959999998,276.9375,1438.5,28.875,94.1875,438,21.78125,752,1514.25,30.09375,93.875,422,19.59375,788,-0.175781248,0,-645.1742872,38.153478675999999,19.78123472,34084,0,0.038452147999999998,7.1850585120000003,-89.88464253,-103.1671131,0.375,-1.90625,37.6875,-0.527343744,-0.747070304,-0.043945312,-5.693742487,5.9242007397463112,1.2673791933528946,0.17444070784539356,0.11896152262506199,1.252521738946637,1.5246200076684318,19.865154861187005,14.911467750865402,-2.074314734,0.24688946461472394,-0.122796193,0.14747446816932097,128.78098075630083,125.15939604265297,-30.32600512,43.774976315720437,7.4793119794220315,43.131293091633125,8.175598145,11.233688354492187,6.3270296484106439,43.388653367139156,11.233688354492187,58.785017311051945,58.504824502791848,-52.52454865,-62.54418758,-62.24066597,-80.03319875,28.789993286132813,301.93999328613279,27.289993286132813,300.43999328613279,94.209301098669187,93.992973083224214,31814.378557870805,0,0,0,0,248.35713055654202,449.07041499001036,0.68934201202765333,5.8333324644118285,-0.226512535
234:15:35:58.300000,716.8,255.22273904390562,-17.92726096,2,0.001929473,49.99999999999995,0.001925817,49.99999999999995,0.001999175,50.003394663588786,0.002172692,50.016973317944142,234,15,35,58.289999999999999,7464,34087.27034120731,10389.799999999999,0,1,35,10.862369999999999,1,117,14.050979999999999,383.00999999999999,32102.5,0.70381250000000006,252.375,421.125,-14,-37.5,8.0673786820000011,2.5488280959999998,0.349609375,2.5488280959999998,276.875,1438.75,28.78125,94.1875,438,21.78125,752,1514.5,30.09375,93.875,422,19.59375,782,-0.175781248,0,-644.7315581,38.197404513999999,21.186176922999998,34088,0,-0.120849608,6.9543456240000001,-89.8901357,-103.1726062,0.1875,-1.59375,35.9375,-0.87890624,-1.42822264,-0.021972656,-9.063580496,8.1980258042498235,1.5147336878304714,0.17444070784539356,0.11399944787734917,1.1803371126226452,1.5304681117934891,19.857696436780255,14.759644622866166,-2.006110039,0.24688946461472394,-0.124835086,0.1632517744151869,128.79137007953858,125.15939604265297,-30.37009366,43.768908194853111,7.4437141813156877,43.131293091633125,8.173187255859375,11.225692749023438,6.2954188894820078,43.331754001067615,11.225692749023438,58.761877057799779,58.486392597448997,-52.52454865,-62.54418758,-62.24066597,-80.03319875,28.789993286132813,301.93999328613279,27.289993286132813,300.43999328613279,94.208679825110949,94.012148253441779,31820.754566341348,0,0,0,0,248.13791105295698,448.73665771663701,0.68886863952091615,5.7192529349956516,-0.227904404
234:15:35:58.500000,717,255.18304183326615,-17.96695817,2,0.001929473,49.99999999999995,0.001925817,49.99999999999995,0.001999175,50.003394663588786,0.002172691,50.020367981532978,234,15,35,58.489999999999995,8625,34092.191601049839,10391.300000000001,0,1,35,10.863919999999998,1,117,14.08306,382.69999999999999,32105.5,0.70343750000000005,252.1875,420.9375,-14,-37.5,8.0664021200000011,2.5488280959999998,0.349609375,2.5488280959999998,276.875,1438.75,28.78125,94.1875,437,21.78125,752,1514.5,30.09375,94,422,19.59375,782,-0.175781248,0,-644.4711077,38.21613507,21.827933911999999,34092,0,-0.335083004,6.6027831280000004,-89.89562886,-103.1780994,-0.0625,-1.125,33.53125,-1.010742176,-1.911621072,-0.087890624,-8.569337588,-0.722364833,1.5642045867259924,0.17408750388601035,0.11399944787734917,1.0951872864249257,1.5143858254495939,19.869629915831045,14.73181038273297,-1.982317703,0.24688946461472394,-0.12745652,0.1632517744151869,128.80503224843753,125.15939604265297,-30.42797914,43.763241349732375,7.4103204842008079,43.131293091633125,8.173187255859375,11.225692749023438,6.2519540959551421,43.253517372719259,11.225692749023438,58.734107241317304,58.454135671320714,-52.51689817,-62.53041671,-62.24066597,-80.03319875,28.789993286132813,301.93999328613279,27.289993286132813,300.43999328613279,94.181351898366984,94.013385629861673,31820.754566341348,0,0,0,0,248.13791105295698,448.7017582276203,0.68886863952091615,5.2629348173309367,-0.227904404
